     2.11           OBSERVATION DATA    M (MIXED)           RINEX VERSION / TYPE
teqc  2016Apr1                          20160802 13:51:30UTCPGM / RUN BY / DATE
Linux2.4.20-8|i386|gcc|Win32-MinGW32|=                      COMMENT
teqc  2016Apr1                          20160802 13:50:48UTCCOMMENT
teqc  2009Mar23                         20151221 01:05:03UTCCOMMENT
Linux 2.4.20-8|Pentium IV|gcc -static|Linux|486/DX+         COMMENT
BIT 2 OF LLI FLAGS DATA COLLECTED UNDER A/S CONDITION       COMMENT
IQAL CACS-GSD M099002 Iqaluit NU Canada                     MARKER NAME
40194M001                                                   MARKER NUMBER
OPERATOR            NRCan/GEODETIC SURVEY OF CANADA         OBSERVER / AGENCY
618-00821           TPS NET-G3A         3.5 Mar,16,2011 p1  REC # / TYPE / VERS
383-0408            TPSCR.G3        NONE                    ANT # / TYPE
  1036001.0200 -2631455.5600  5697819.6900                  APPROX POSITION XYZ
        0.0500        0.0000        0.0000                  ANTENNA: DELTA H/E/N
     1     1                                                WAVELENGTH FACT L1/2
     5    L1    L2    C1    P1    P2                        # / TYPES OF OBSERV
    30.0000                                                 INTERVAL
    17                                                      LEAP SECONDS
RINEXED from Topcon TPS-binary: ken.macleod@nrcan.gc.ca     COMMENT
Forced Modulo Decimation to 30 seconds                      COMMENT
This data is subject to the Open Government Licence -Canada COMMENT
http://open.canada.ca/en/open-government-licence-canada     COMMENT
 SNR is mapped to RINEX snr flag value [0-9]                COMMENT
  L1 & L2: min(max(int(snr_dBHz/6), 0), 9)                  COMMENT
teqc windowed: start @ 2015 Dec 21 00:00:00.000             COMMENT
teqc windowed: delta = 3600.000 sec                         COMMENT
pseudorange smoothing corrections not applied               COMMENT
teqc edited: all GLONASS satellites excluded                COMMENT
  2015    12    21     0     0    0.0000000     GPS         TIME OF FIRST OBS
                                                            END OF HEADER
 15 12 21  0  0  0.0000000  0 11G06G26G29G03G23G14G32G12G31G25G02
 126764722.89147  98777710.63746  24122527.242    24122527.397    24122528.633
 122093083.92647  95137475.13946  23233535.416    23233534.990    23233536.018
 123795196.03747  96463795.19846  23557437.755    23557437.986    23557432.588
 115654877.95248  90120673.79947  22008380.999    22008380.848    22008380.348
 128332145.42147  99999075.01644  24420792.734    24420792.106    24420787.254
 120745638.00247  94087517.30344  22977117.125    22977115.783    22977113.564
 118289549.58748  92173660.56346  22509740.794    22509739.228    22509738.180
 128138828.92347  99848443.47145  24384010.980    24384010.171    24384007.252
 106562758.92249  83035931.09548  20278211.412    20278210.955    20278207.578
 113987325.75748  88821298.40447  21691062.635    21691061.705    21691062.073
 133345447.08446 103905543.89342  25374794.565    25374793.561    25374789.766
 15 12 21  0  0 30.0000000  0 11G06G26G29G03G23G14G32G12G31G25G02
 126748140.82847  98764789.72446  24119371.072    24119371.623    24119372.569
 121985557.80447  95053688.54847  23213074.029    23213073.361    23213074.552
 123706597.34347  96394757.32646  23540576.776    23540577.218    23540574.256
 115667735.10248  90130692.36447  22010827.600    22010827.298    22010826.990
 128226590.29547  99916824.34344  24400707.050    24400705.516    24400700.894
 120844048.24047  94164200.66444  22995843.702    22995842.352    22995840.018
 118366158.92347  92233356.17446  22524318.737    22524317.180    22524316.191
 128250529.83846  99935483.33445  24405266.767    24405265.264    24405265.266
 106564192.99749  83037048.59048  20278484.361    20278483.941    20278480.635
 114048898.64648  88869277.21947  21702779.522    21702778.710    21702779.039
 133278259.12246 103853189.70042  25362010.223    25362007.563    25362004.258
 15 12 21  0  1  0.0000000  0 11G06G26G29G03G23G14G32G12G31G25G02
 126732158.20447  98752335.95046  24116330.260    24116330.470    24116331.591
 121878271.80647  94970089.10346  23192658.076    23192657.545    23192658.579
 123618345.63447  96325989.74346  23523781.634    23523780.753    23523780.299
 115681221.23648  90141201.04947  22013393.811    22013393.925    22013393.375
 128121166.39047  99834675.92144  24380644.810    24380644.264    24380640.308
 120942707.06247  94241077.74544  23014617.979    23014616.975    23014613.916
 118443188.38748  92293379.13945  22538977.057    22538975.745    22538974.483
 128362421.36946 100022672.40345  24426557.771    24426557.582    24426556.845
 106566127.09049  83038555.68748  20278852.340    20278851.895    20278848.491
 114110990.42348  88917660.34247  21714594.990    21714594.209    21714594.608
 133211419.25846 103801106.96042  25349290.435    25349288.414    25349286.517
 15 12 21  0  1 30.0000000  0 11G06G26G29G03G23G14G32G12G31G25G02
 126716776.89047  98740350.67046  24113402.805    24113402.857    24113405.982
 121771229.92347  94886679.90146  23172288.155    23172287.858    23172288.459
 123530445.57547  96257496.18746  23507054.877    23507053.954    23507053.777
 115695337.36148  90152200.63347  22016080.069    22016079.733    22016079.586
 128015877.12047  99752632.45044  24360609.385    24360608.112    24360604.106
 121041614.62547  94318148.73444  23033439.118    23033438.187    23033435.606
 118520637.21748  92353728.90545  22553714.765    22553713.147    22553712.452
 128474500.74746 100110007.56646  24447884.549    24447883.877    24447882.958
 106568562.15549  83040453.12948  20279315.539    20279315.138    20279311.983
 114173600.17548  88966446.96647  21726509.541    21726508.690    21726509.281
 133144930.61346 103749297.83042  25336636.395    25336635.812    25336633.113
 15 12 21  0  2  0.0000000  0 11G06G26G29G03G23G14G32G12G31G25G02
 126701996.84947  98728833.89346  24110590.754    24110590.190    24110590.811
 121664433.56947  94803461.99646  23151965.659    23151965.111    23151965.712
 123442899.29247  96189278.36246  23490395.193    23490395.309    23490393.177
 115710082.22948  90163690.15047  22018886.054    22018885.748    22018885.512
 127910723.64448  99670694.67844  24340599.825    24340600.047    24340594.266
 121140767.98447  94395411.10544  23052306.892    23052306.139    23052304.717
 118598502.11148  92414402.84645  22568532.343    22568530.977    22568529.470
 128586765.63246 100197487.20046  24469247.798    24469247.376    24469247.131
 106571497.34049  83042740.27848  20279874.196    20279873.837    20279870.657
 114236725.65148  89015635.72747  21738521.742    21738521.055    21738521.559
 133078796.02146 103697764.71742  25324052.685    25324049.756    25324049.820
 15 12 21  0  2 30.0000000  0 11G06G26G29G03G23G14G32G12G31G25G02
 126687818.33747  98717785.77646  24107892.441    24107892.696    24107893.134
 121557884.85247  94720437.04946  23131690.122    23131689.541    23131690.859
 123355709.38047  96121338.25646  23473804.462    23473804.741    23473801.388
 115725454.93748  90175668.88847  22021811.275    22021811.206    22021810.884
 127805707.73347  99588864.20844  24320614.959    24320614.148    24320611.199
 121240165.57647  94472863.77844  23071222.359    23071221.537    23071220.190
 118676780.40848  92475398.93145  22583428.244    22583426.487    22583425.742
 128699213.09346 100285109.32745  24490645.609    24490645.419    24490643.613
 106574931.80149  83045416.47948  20280527.765    20280527.285    20280524.026
 114300363.51348  89065223.63847  21750632.162    21750631.063    21750631.384
 133013016.10946 103646508.19341  25311534.720    25311533.564    25311529.908
 15 12 21  0  3  0.0000000  0 11G06G26G29G03G23G14G32G12G31G25G02
 126674242.50047  98707207.14846  24105308.449    24105306.803    24105309.221
 121451587.01947  94637607.61847  23111462.743    23111461.541    23111462.122
 123268879.85347  96053678.90046  23457280.894    23457280.332    23457279.334
 115741455.79348  90188137.08947  22024856.154    22024856.020    22024855.600
 127700832.11247  99507143.05144  24300658.669    24300658.626    24300652.444
 121339806.06947  94550505.66344  23090182.977    23090181.804    23090179.824
 118755470.49948  92536715.89145  22598402.268    22598401.014    22598399.903
 128811840.72846 100372871.47345  24512077.470    24512077.337    24512073.974
 106578866.66648  83048482.63148  20281276.394    20281276.178    20281272.841
 114364512.62948  89115209.93547  21762839.199    21762838.287    21762838.734
 132947593.75146 103595529.88841  25299084.495    25299082.672    25299079.637
 15 12 21  0  3 30.0000000  0 11G06G26G29G03G23G14G32G12G31G25G02
 126661269.65346  98697098.30746  24102839.340    24102839.113    24102841.760
 121345541.93947  94554975.09347  23091282.781    23091281.920    23091283.287
 123182413.53647  95986302.54846  23440826.680    23440825.881    23440824.897
 115758083.87248  90201094.03147  22028020.449    22028020.303    22028019.975
 127596098.72147  99425532.60444  24280728.193    24280727.205    24280720.192
 121439687.78847  94628335.50444  23109190.038    23109189.642    23109186.918
 118834569.59048  92598351.52945  22613454.433    22613453.045    22613451.851
 128924645.53346 100460771.54245  24533543.807    24533543.652    24533541.806
 106583300.61449  83051937.59648  20282120.411    20282119.927    20282116.722
 114429170.60348  89165592.86547  21775143.353    21775142.226    21775142.607
 132882531.05746 103544831.65942  25286703.526    25286701.928    25286698.213
 15 12 21  0  4  0.0000000  0 11G06G26G29G03G23G14G32G12G31G25G02
 126648900.48247  98687459.92146  24100487.352    24100487.376    24100487.761
 121239751.99347  94472541.39147  23071151.588    23071151.203    23071151.670
 123096312.77747  95919211.02546  23424441.832    23424440.374    23424438.763
 115775338.38348  90214539.11047  22031303.881    22031303.388    22031303.016
 127491509.15747  99344034.32744  24260825.026    24260823.905    24260821.123
 121539808.48347  94706351.56644  23128242.664    23128241.460    23128238.552
 118914075.03148  92660303.83245  22628583.740    22628582.569    22628581.467
 129037625.52546 100548808.25045  24555043.264    24555042.745    24555040.535
 106588233.63249  83055781.49548  20283059.097    20283058.534    20283055.207
 114494334.58348  89216370.01047  21787543.317    21787542.399    21787542.692
 132817829.76146 103494414.80542  25274392.108    25274391.208    25274386.305
 15 12 21  0  4 30.0000000  0 11G06G26G29G03G23G14G32G12G31G25G02
 126637134.30447  98678291.36246  24098247.346    24098247.166    24098249.336
 121134218.41647  94390307.40746  23051069.213    23051068.519    23051069.733
 123010579.96747  95852406.20946  23408127.256    23408126.106    23408124.469
 115793217.80048  90228471.11447  22034706.397    22034706.055    22034705.703
 127387065.00547  99262649.29844  24240950.546    24240950.073    24240943.183
 121640166.16247  94784552.31644  23147339.236    23147337.740    23147334.563
 118993983.64248  92722570.34045  22643790.113    22643788.673    22643787.507
 129150776.74146 100636978.26445  24576575.118    24576574.544    24576571.753
 106593663.89149  83060012.79648  20284092.632    20284092.243    20284088.748
 114560001.54748  89267539.10047  21800039.258    21800038.059    21800038.817
 132753492.48146 103444281.73542  25262148.803    25262147.692    25262143.576
 15 12 21  0  5  0.0000000  0 11G06G26G29G03G23G14G32G12G31G25G02
 126625973.16447  98669594.40546  24096123.068    24096123.450    24096124.229
 121028945.02547  94308276.20247  23031036.336    23031036.121    23031036.377
 122925219.39747  95785891.49646  23391885.298    23391884.005    23391883.396
 115811722.74248  90242890.55547  22038227.695    22038227.205    22038226.884
 127282769.28847  99181379.95644  24221101.936    24221101.566    24221097.831
 121740759.75547  94862936.89844  23166483.229    23166482.435    23166479.086
 119074293.85648  92785149.73545  22659072.850    22659071.250    22659069.491
 129264096.87546 100725279.68645  24598138.538    24598137.634    24598136.754
 106599593.03248  83064632.88848  20285220.752    20285220.287    20285217.133
 114626170.45848  89319099.28747  21812630.736    21812629.709    21812630.199
 132689522.48046 103394434.99742  25249975.771    25249974.682    25249970.507
 15 12 21  0  5 30.0000000  0 11G06G26G29G03G23G14G32G12G31G25G02
 126615416.45546  98661368.28046  24094114.511    24094115.266    24094115.422
 120923933.50347  94226449.06647  23011053.012    23011052.656    23011054.220
 122840233.33447  95719668.62246  23375711.497    23375711.059    23375709.864
 115830851.86048  90257796.36047  22041867.566    22041867.497    22041867.085
 127178623.49247  99100227.46143  24201285.142    24201285.166    24201279.559
 121841587.00047  94941503.59344  23185667.899    23185667.055    23185665.308
 119155002.58748  92848039.61545  22674430.901    22674429.615    22674428.678
 129377584.56247 100813711.73645  24619735.066    24619734.104    24619731.729
 106606019.36749  83069640.40248  20286443.807    20286443.224    20286439.940
 114692838.30348  89371048.23547  21825317.493    21825316.152    21825316.817
 132625920.89946 103344875.56342  25237872.550    25237871.949    25237866.886
 15 12 21  0  6  0.0000000  0 11G06G26G29G03G23G14G32G12G31G25G02
 126605464.86247  98653613.64446  24092221.081    24092221.336    24092222.198
 120819186.22847  94144827.78447  22991120.394    22991120.073    22991120.844
 122755624.64547  95653739.72346  23359613.831    23359613.525    23359609.354
 115850604.65548  90273188.13547  22045626.518    22045626.340    22045626.088
 127074629.85947  99019193.53144  24181493.485    24181492.714    24181490.069
 121942646.33647  95020251.15844  23204900.367    23204899.198    23204896.468
 119236107.70048  92911238.37245  22689864.847    22689863.207    22689861.656
 129491236.31647 100902271.58445  24641362.428    24641361.985    24641358.746
 106612942.78649  83075035.21148  20287761.207    20287760.777    20287757.554
 114760002.91948  89423384.20147  21838098.414    21838097.633    21838097.872
 132562689.93846 103295604.70142  25225840.183    25225838.869    25225835.171
 15 12 21  0  6 30.0000000  0 11G06G26G29G03G23G14G32G12G31G25G02
 126596118.57647  98646330.68046  24090443.073    24090443.391    24090444.578
 120714705.51047  94063414.27347  22971238.517    22971237.908    22971238.625
 122671396.28547  95588107.24346  23343584.184    23343583.289    23343581.890
 115870980.06748  90289065.06947  22049503.881    22049503.585    22049503.434
 126970790.14047  98938279.47944  24161735.367    24161735.182    24161729.904
 122043935.93647  95099178.14144  23224175.174    23224174.123    23224172.097
 119317606.32448  92974743.73345  22705373.474    22705371.926    22705370.924
 129605050.15746 100990957.89345  24663019.556    24663019.260    24663016.321
 106620363.27548  83080817.44148  20289173.241    20289172.860    20289169.658
 114827661.71448  89476105.22747  21850973.428    21850972.591    21850973.267
 132499832.64546 103246625.38742  25213878.503    25213877.041    25213873.739
 15 12 21  0  7  0.0000000  0 11G06G26G29G03G23G14G32G12G31G25G02
 126587377.88346  98639519.50346  24088779.786    24088779.119    24088780.908
 120610493.45047  93982210.01547  22951407.548    22951407.163    22951408.542
 122587551.32347  95522773.56346  23327628.580    23327628.129    23327626.628
 115891977.48848  90305426.68847  22053499.569    22053499.316    22053498.882
 126867106.58647  98857487.16344  24142004.496    24142003.576    24142000.213
 122145453.73947  95178282.89144  23243492.995    23243492.528    23243490.828
 119399496.19847  93038554.01345  22720956.239    22720954.725    22720954.079
 129719023.21846 101079768.27145  24684707.905    24684707.591    24684703.929
 106628279.72449  83086986.18448  20290679.699    20290679.190    20290675.977
 114895812.62248  89529209.73347  21863942.283    21863941.407    21863941.795
 132437349.79546 103197937.62042  25201988.049    25201987.347    25201983.353
 15 12 21  0  7 30.0000000  0 11G06G26G29G03G23G14G32G12G31G25G02
 126579243.67546  98633180.88846  24087230.619    24087229.485    24087234.239
 120506553.10647  93901217.50247  22931628.624    22931627.311    22931628.801
 122504093.05447  95457741.18246  23311747.604    23311746.966    23311744.167
 115913596.61748  90322272.75447  22057613.513    22057613.311    22057613.268
 126763581.69547  98776818.47344  24122305.075    24122304.370    24122301.118
 122247198.47147  95257564.49644  23262854.632    23262853.525    23262851.545
 119481775.24348  93102667.53445  22736613.529    22736612.422    22736611.359
 129833152.49346 101168700.09145  24706426.481    24706426.013    24706422.803
 106636692.14449  83093541.27848  20292280.562    20292280.058    20292276.855
 114964453.66548  89582696.13847  21877003.953    21877003.231    21877004.055
 132375243.94346 103149543.35542  25190170.048    25190169.295    25190163.548
 15 12 21  0  8  0.0000000  0 11G06G26G29G03G23G14G32G12G31G25G02
 126571716.57546  98627315.80946  24085798.984    24085798.843    24085800.655
 120402886.10347  93820438.05447  22911901.764    22911900.898    22911901.725
 122421023.45247  95393011.64146  23295939.805    23295939.087    23295935.867
 115935835.79048  90339601.97847  22061845.522    22061845.246    22061845.239
 126660216.75647  98696274.27144  24102635.221    24102634.245    24102629.516
 122349167.74447  95337021.07644  23282258.483    23282257.545    23282256.026
 119564440.03448  93167081.67345  22752344.107    22752342.682    22752341.682
 129947435.09146 101257751.28945  24728173.313    24728171.161    24728170.977
 106645600.07549  83100482.50948  20293975.772    20293975.188    20293971.957
 115033581.76147  89636562.09047  21890158.891    21890157.836    21890158.524
 132313517.53746 103101444.99342  25178424.057    25178422.076    25178419.361
 15 12 21  0  8 30.0000000  0 11G06G26G29G03G23G14G32G12G31G25G02
 126564795.81147  98621923.02546  24084483.175    24084483.474    24084483.496
 120299494.85447  93739873.43547  22892226.634    22892226.154    22892226.719
 122338345.86747  95328587.52646  23280206.036    23280205.258    23280203.468
 115958694.55248  90357413.99647  22066195.316    22066194.807    22066194.844
 126557014.35047  98615856.90444  24082995.622    24082995.065    24082992.264
 122451360.22147  95416651.54144  23301705.013    23301704.813    23301701.667
 119647488.36048  93231794.63645  22768147.739    22768146.578    22768145.248
 130061869.80946 101346921.05145  24749949.032    24749949.696    24749946.820
 106655002.76148  83107809.25748  20295764.859    20295764.450    20295761.238
 115103193.95748  89690804.81047  21903405.959    21903404.988    21903405.786
 132252172.25946 103053643.43643  25166750.814    25166749.159    25166743.992
 15 12 21  0  9  0.0000000  0 11G06G26G29G03G23G14G32G12G31G25G02
 126558481.59347  98617002.82746  24083281.051    24083280.858    24083281.296
 120196381.36847  93659525.22647  22872604.908    22872604.390    22872605.417
 122256062.89247  95264470.93946  23264548.678    23264548.101    23264546.352
 115982171.62248  90375707.78747  22070663.253    22070662.773    22070662.560
 126453976.56847  98535567.69744  24063388.409    24063388.089    24063382.897
 122553773.60247  95496454.13944  23321194.415    23321192.446    23321190.997
 119730917.44347  93296804.31945  22784023.602    22784022.071    22784021.262
 130176454.49546 101436208.41045  24771753.917    24771753.202    24771751.562
 106664899.82849  83115521.43048  20297648.105    20297647.661    20297644.413
 115173288.36848  89745423.26747  21916745.207    21916744.205    21916745.074
 132191209.53546 103006139.56543  25155150.141    25155149.311    25155143.586
 15 12 21  0  9 30.0000000  0 11G06G26G29G03G23G14G32G12G31G25G02
 126552775.37346  98612556.40646  24082194.858    24082194.269    24082196.456
 120093549.19247  93579396.23947  22853036.440    22853036.088    22853036.805
 122174178.74647  95200665.16146  23248966.219    23248965.737    23248963.696
 116006267.37448  90394483.72447  22075248.364    22075247.872    22075247.761
 126351105.58947  98455408.52444  24043811.752    24043811.370    24043807.605
 122656407.28947  95576428.45544  23340724.212    23340722.799    23340721.390
 119814725.65947  93362109.39245  22799971.962    22799970.386    22799969.476
 130291185.07746 101525609.01745  24793585.939    24793585.777    24793583.409
 106675291.20249  83123618.55748  20299625.561    20299625.163    20299621.841
 115243864.87048  89800417.93847  21930175.445    21930174.633    21930175.646
 132130633.92046 102958937.49542  25143622.433    25143621.755    25143617.802
 15 12 21  0 10  0.0000000  0 11G06G26G29G03G23G14G32G12G31G25G02
 126547675.62447  98608582.33946  24081224.740    24081223.574    24081226.937
 119990999.45847  93499487.30147  22833522.147    22833521.264    22833522.309
 122092694.73147  95137171.11946  23233460.833    23233460.193    23233457.794
 116030979.64648  90413740.03247  22079950.809    22079950.515    22079950.007
 126248403.03447  98375380.58944  24024269.211    24024267.829    24024264.438
 122759258.58047  95656572.37444  23360296.308    23360294.618    23360293.319
 119898909.61448  93427707.31345  22815991.723    22815990.131    22815989.001
 130406059.71346 101615122.08545  24815445.828    24815444.663    24815442.926
 106686175.70249  83132099.98848  20301696.952    20301696.418    20301693.248
 115314917.59148  89855783.02847  21943696.746    21943695.942    21943696.931
 132070445.95646 102912037.58942  25132169.797    25132168.699    25132164.089
 15 12 21  0 10 30.0000000  0 11G06G26G29G03G23G14G32G12G31G25G02
 126543183.51847  98605081.76746  24080370.476    24080369.336    24080372.407
 119888734.96547  93419800.73047  22814061.832    22814060.944    22814062.133
 122011614.07447  95073991.37346  23218031.230    23218031.020    23218027.659
 116056307.82948  90433476.28247  22084770.674    22084770.588    22084770.120
 126145871.18147  98295485.65544  24004756.980    24004756.043    24004752.605
 122862325.57647  95736884.31744  23379909.095    23379908.257    23379906.305
 119983466.65447  93493595.89745  22832082.446    22832080.770    22832079.929
 130521074.69946 101704744.33845  24837332.062    24837332.406    24837328.532
 106697553.43949  83140965.77948  20303862.148    20303861.564    20303858.282
 115386446.10548  89911519.10147  21957308.661    21957307.668    21957309.011
 132010647.19646 102865440.74543  25120790.855    25120789.525    25120785.171
 15 12 21  0 11  0.0000000  0 11G06G26G29G03G23G14G32G12G31G25G02
 126539299.49647  98602055.02846  24079631.712    24079631.170    24079633.687
 119786758.18847  93340338.32347  22794656.547    22794655.843    22794656.598
 121930940.34847  95011128.73346  23202679.372    23202678.037    23202677.100
 116082251.41548  90453692.06947  22089707.467    22089707.467    22089706.963
 126043512.97847  98215726.01444  23985280.986    23985279.990    23985274.867
 122965607.07947  95817363.36444  23399563.039    23399562.688    23399560.484
 120068394.94347  93559773.81245  22848243.758    22848242.063    22848241.458
 130636228.96946 101794475.05045  24859244.982    24859244.621    24859242.645
 106709424.34349  83150215.90648  20306120.914    20306120.474    20306117.100
 115458448.35648  89967624.47347  21971010.757    21971009.540    21971010.824
 131951240.93446 102819149.79643  25109485.857    25109483.800    25109480.581
 15 12 21  0 11 30.0000000  0 11G06G26G29G03G23G14G32G12G31G25G02
 126536023.48447  98599502.30546  24079009.095    24079009.561    24079009.820
 119685070.78947  93261101.43647  22775305.584    22775305.098    22775306.155
 121850675.50147  94948584.70146  23187406.636    23187406.010    23187404.573
 116108808.56548  90474385.95947  22094760.966    22094760.760    22094760.923
 125941329.30347  98136102.39844  23965833.763    23965832.161    23965829.462
 123069100.40747  95898007.50144  23419256.845    23419256.057    23419254.132
 120153691.04447  93626238.34345  22864474.892    22864473.089    22864472.640
 130751519.08446 101884311.46745  24881184.424    24881183.796    24881181.491
 106721786.43549  83159848.68448  20308473.313    20308472.886    20308469.484
 115530921.15647  90024096.71647  21984801.206    21984800.700    21984801.458
 131892227.23946 102773164.22343  25098256.848    25098254.413    25098250.267
 15 12 21  0 12  0.0000000  0 11G06G26G29G03G23G14G32G12G31G25G02
 126533355.25747  98597423.31446  24078500.098    24078500.561    24078501.616
 119583675.02447  93182091.78247  22756010.224    22756010.067    22756011.015
 121770822.35247  94886361.40846  23172210.660    23172210.053    23172207.800
 116135978.34648  90495557.19947  22099931.642    22099931.311    22099930.765
 125839322.70647  98056616.75544  23946424.209    23946423.325    23946419.241
 123172803.94847  95978815.48944  23438991.144    23438989.901    23438988.171
 120239352.38247  93692987.45045  22880775.455    22880773.951    22880773.365
 130866943.26146 101974252.71645  24903148.820    24903147.991    24903146.609
 106734639.48549  83169864.02748  20310919.166    20310918.696    20310915.414
 115603861.41348  90080932.98547  21998681.919    21998680.914    21998681.959
 131833610.46146 102727488.26742  25087103.093    25087101.703    25087097.042
 15 12 21  0 12 30.0000000  0 11G06G26G29G03G23G14G32G12G31G25G02
 126531295.47247  98595818.57446  24078108.769    24078109.439    24078110.938
 119482573.68247  93103311.54347  22736771.686    22736771.250    22736771.980
 121691384.59747  94824461.96946  23157093.177    23157093.027    23157092.172
 116163760.24048  90517205.40847  22105217.925    22105217.465    22105218.001
 125737495.41547  97977270.83644  23927045.758    23927044.471    23927041.914
 123276716.52647  96059786.31944  23458764.864    23458763.740    23458762.190
 120325376.71847  93760019.40245  22897145.766    22897144.375    22897142.980
 130982498.48546 102064295.95945  24925137.882    24925137.819    24925135.305
 106747983.44748  83180261.90948  20313458.449    20313458.064    20313454.769
 115677268.82948  90138133.97047  22012650.318    22012649.672    22012650.775
 131775392.06946 102682122.66442  25076025.392    25076022.589    25076020.460
 15 12 21  0 13  0.0000000  0 11G06G26G29G03G23G14G32G12G31G25G02
 126529843.72146  98594687.54546  24077831.784    24077830.623    24077833.547
 119381769.01447  93024762.47047  22717589.390    22717588.622    22717589.410
 121612364.61947  94762888.02446  23142055.678    23142055.005    23142053.490
 116192153.16048  90539329.77147  22110621.107    22110620.910    22110620.660
 125635849.51347  97898066.20544  23907704.225    23907703.577    23907698.385
 123380835.99147  96140918.29944  23478578.864    23478577.738    23478575.488
 120411761.52548  93827332.22745  22913584.043    22913582.779    22913581.583
 131098181.94546 102154438.82445  24947151.720    24947151.069    24947147.182
 106761818.31548  83191042.34348  20316091.105    20316090.668    20316087.402
 115751138.91747  90195695.13247  22026707.744    22026706.729    22026707.635
 131717574.77146 102637070.18443  25065022.122    25065021.555    25065018.488
 15 12 21  0 13 30.0000000  0 11G06G26G29G03G23G14G32G12G31G25G02
 126528999.88447  98594030.25746  24077671.479    24077671.564    24077672.693
 119281263.04447  92946446.17947  22698463.425    22698463.067    22698463.573
 121533765.06147  94701641.66146  23127100.200    23127099.923    23127097.039
 116221155.67548  90561929.13847  22116140.390    22116139.932    22116139.662
 125534387.05447  97819004.59744  23888395.945    23888394.940    23888392.156
 123485160.25247  96222209.83444  23498430.393    23498428.975    23498429.537
 120498503.89647  93894923.70245  22930090.663    22930089.051    22930087.654
 131213989.88346 102244678.09945  24969190.242    24969189.297    24969185.360
 106776141.71249  83202203.09548  20318816.961    20318816.534    20318813.389
 115825469.75448  90253615.35347  22040852.456    22040851.050    22040852.443
 131660160.53046 102592332.12043  25054097.196    25054096.066    25054091.705
 15 12 21  0 14  0.0000000  0 12G06G26G29G03G23G14G32G12G16G31G25G02
 126528763.92747  98593846.36646  24077626.912    24077627.560    24077627.222
 119181058.60747  92868364.86147  22679395.339    22679394.754    22679395.691
 121455589.16247  94640725.41646  23112222.889    23112222.319    23112221.207
 116250767.24748  90585003.08647  22121775.062    22121774.828    22121774.377
 125433110.70847  97740088.00044  23869123.881    23869123.366    23869119.524
 123589688.56347  96303660.36444  23518321.110    23518319.633    23518318.796
 120585601.70547  93962792.12745  22946665.205    22946663.672    22946662.574
 131329921.94246 102335013.69045  24991252.108    24991252.029    24991248.448
 131456324.25546 102433501.79142  25015305.483    25015305.372    25015304.750
 106790954.84649  83213745.54948  20321636.046    20321635.631    20321632.379
 115900259.31648  90311893.02547  22055084.334    22055083.135    22055084.308
 131603150.27247 102547908.65843  25043248.998    25043247.767    25043242.025
 15 12 21  0 14 30.0000000  0 12G06G26G29G03G23G14G32G12G16G31G25G02
 126529135.92747  98594136.42346  24077696.218    24077696.647    24077698.276
 119081157.01747  92790519.52447  22660384.457    22660383.765    22660384.462
 121377838.72147  94580140.70246  23097427.396    23097426.399    23097425.145
 116280985.89548  90608550.12747  22127525.388    22127525.106    22127524.959
 125332021.75347  97661317.43244  23849886.945    23849885.843    23849882.846
 123694417.76747  96385267.48344  23538252.045    23538250.594    23538247.973
 120673051.45547  94030934.76645  22963306.169    22963304.626    22963303.771
 131445976.24146 102425445.52945  25013336.602    25013336.479    25013333.247
 131331206.12146 102336007.47541  24991495.774    24991495.295    24991494.602
 106806256.19948  83225668.53848  20324547.872    20324547.417    20324544.438
 115975503.94847  90370525.22547  22069402.009    22069401.663    22069402.881
 131546544.63646 102503799.78543  25032476.032    25032474.909    25032471.933
 15 12 21  0 15  0.0000000  0 12G06G26G29G03G23G14G32G12G16G31G25G02
 126530117.41947  98594901.49946  24077882.528    24077882.593    24077883.879
 118981562.43747  92712913.39147  22641432.427    22641431.390    22641432.322
 121300518.25447  94519890.98446  23082714.317    23082713.933    23082710.490
 116311812.23847  90632570.66547  22133391.356    22133390.994    22133390.702
 125231124.34047  97582696.11945  23830687.036    23830686.329    23830682.477
 123799347.61847  96467030.92544  23558219.068    23558218.399    23558215.067
 120760852.39947  94099351.06045  22980014.166    22980012.234    22980011.821
 131562151.28246 102515971.69445  25035443.860    25035442.846    25035441.091
 131206142.33746 102238555.38841  24967697.887    24967694.812    24967696.422
 106822047.96349  83237974.21148  20327552.751    20327552.306    20327549.081
 116051204.66848  90429513.45347  22083807.482    22083806.599    22083807.479
 131490349.10846 102460010.71343  25021783.920    25021783.198    25021779.438
 15 12 21  0 15 30.0000000  0 12G06G26G29G03G23G14G32G12G16G31G25G02
 126531705.69346  98596139.20746  24078184.254    24078183.253    24078185.941
 118882274.95447  92635546.55747  22622538.774    22622538.001    22622538.652
 121223629.05447  94459977.35646  23068083.220    23068082.632    23068078.930
 116343242.99748  90657062.18547  22139372.325    22139372.169    22139371.981
 125130418.01147  97504223.66644  23811523.121    23811521.289    23811517.894
 123904474.42047  96548947.80344  23578223.146    23578222.037    23578219.678
 120848999.68747  94168037.22945  22996787.588    22996786.054    22996784.755
 131678441.59246 102606587.51745  25057573.130    25057571.774    25057570.556
 131081135.28146                  24943908.729
 106838326.04249  83250658.64148  20330650.219    20330649.675    20330646.491
 116127354.35448  90488850.93947  22098298.172    22098297.019    22098297.936
 131434562.89346 102416540.23543  25011168.952    25011168.496    25011162.720
 15 12 21  0 16  0.0000000  0 12G06G26G29G03G23G14G32G12G16G31G25G02
 126533901.12147  98597850.04446  24078602.638    24078602.694    24078602.458
 118783296.94047  92558420.85847  22603703.302    22603702.920    22603703.873
 121147173.35047  94400401.50746  23053533.921    23053533.439    23053529.951
 116375277.03648  90682023.78647  22145468.169    22145468.219    22145467.942
 125029905.43047  97425902.24245  23792396.440    23792395.336    23792391.887
 124009796.93847  96631017.29643  23598265.583    23598263.892    23598262.175
 120937491.04147  94236991.58245  23013627.040    23013625.522    23013624.927
 131794846.23546 102697292.92545  25079724.050    25079723.195    25079721.927
 130956184.41346                  24920130.863
 106855089.30348  83263720.81448  20333840.067    20333839.643    20333836.452
 116203950.20348  90548535.30747  22112874.639    22112873.588    22112874.865
 131379188.20946 102373390.62643  25000629.915    25000629.358    25000624.530
 15 12 21  0 16 30.0000000  0 12G06G26G29G03G23G14G32G12G16G31G25G02
 126536704.46946  98600034.60646  24079136.434    24079135.860    24079136.502
 118684631.69247  92481538.88747  22584927.883    22584927.740    22584928.531
 121071155.29847  94341166.69246  23039067.988    23039067.842    23039064.134
 116407914.14648  90707455.31447  22151679.040    22151678.732    22151678.480
 124929589.50547  97347734.00944  23773307.110    23773306.639    23773302.355
 124115313.95147  96713238.35544  23618345.964    23618345.367    23618340.754
 121026324.56547  94306212.54545  23030531.547    23030530.045    23030529.261
 131911362.44246 102788085.32645  25101896.047    25101895.545    25101893.588
 130831294.44846                  24896367.041
 106872338.58149  83277161.53548  20337122.721    20337122.290    20337119.106
 116280994.27448  90608569.93747  22127535.552    22127534.122    22127535.171
 131324226.70646                  24990173.359
 15 12 21  0 17  0.0000000  0 12G06G26G29G03G23G14G32G12G16G31G25G02
 126540114.26046  98602691.58546  24079785.484    24079785.502    24079786.179
 118586280.32747  92404901.50647  22566212.594    22566212.140    22566212.473
 120995576.20847  94282273.96046  23024684.758    23024683.582    23024682.024
 116441151.90448  90733354.84847  22158003.704    22158003.768    22158003.339
 124829471.52247  97269720.00844  23754254.706    23754253.773    23754250.505
 124221022.26047  96795608.49844  23638461.251    23638459.916    23638457.310
 121115496.69847  94375697.41645  23047500.636    23047499.163    23047497.637
 132027985.59146 102878960.63145  25124088.608    25124087.293    25124084.882
 130706467.85546 101849199.36242  24872612.738    24872610.697    24872611.676
 106890073.06749  83290980.67848  20340497.273    20340496.913    20340493.961
 116358481.20948  90668949.78247  22142280.541    22142279.215    22142280.256
 131269683.70046 102288062.56942  24979793.785    24979793.277    24979790.426
 15 12 21  0 17 30.0000000  0 12G06G26G29G03G23G14G32G12G16G31G25G02
 126544131.82747  98605822.12446  24080550.638    24080550.189    24080549.801
 118488246.29847  92328511.38347  22547557.255    22547556.757    22547557.176
 120920440.08247  94223726.29846  23010388.118    23010388.123    23010384.696
 116474990.33648  90759722.42747  22164443.163    22164443.204    22164442.756
 124729554.60847  97191862.72244  23735241.424    23735240.503    23735236.362
 124326921.53247  96878127.36044  23658613.011    23658611.610    23658610.509
 121205005.55847  94445444.57045  23064533.635    23064532.489    23064531.106
 132144715.80546 102969919.22245  25146301.318    25146301.146    25146298.020
 130581708.39746                  24848871.082
 106908292.73349  83305177.88848  20343964.587    20343964.078    20343960.982
 116436409.39547  90729673.39547  22157109.072    22157108.427    22157109.312
 131215558.57546 102245887.27442  24969492.885    24969491.891    24969488.927
 15 12 21  0 18  0.0000000  0 11G06G26G29G03G23G14G32G16G31G25G02
 126548757.07246  98609426.22946  24081429.981    24081428.626    24081431.554
 118390531.89347  92252370.30247  22528962.922    22528962.028    22528962.767
 120845749.83547  94165526.06746  22996174.825    22996174.087    22996171.775
 116509428.23848  90786557.15147  22170996.757    22170996.347    22170996.277
 124629841.19347  97114164.03845  23716266.580    23716265.690    23716261.378
 124433010.18047  96960793.81044  23678801.164    23678799.925    23678798.428
 121294848.86947  94515452.33445  23081629.937    23081628.648    23081627.741
 130457016.24746                  24825143.080
 106926996.94649  83319752.54948  20347523.872    20347523.457    20347520.227
 116514776.33048  90790738.82947  22172021.682    22172020.497    22172021.502
 131161853.13946 102204038.43943  24959274.843    24959273.669    24959269.893
 15 12 21  0 18 30.0000000  0 11G06G26G29G03G23G14G32G16G31G25G02
 126553988.08046  98613502.12046  24082425.494    24082425.133    24082427.728
 118293138.23547  92176479.13047  22510429.667    22510428.729    22510429.397
 120771506.93847  94107674.42346  22982046.660    22982045.677    22982043.150
 116544463.12048  90813857.03647  22177663.258    22177663.379    22177663.062
 124530332.30747  97036624.71445  23697330.126    23697329.610    23697326.212
 124539285.19146  97043605.51543  23699024.108    23699022.575    23699021.257
 121385022.77648  94585717.70445  23098790.050    23098788.677    23098786.667
 130332393.74046                  24801426.702
 106946183.98849  83334703.34748  20351175.217    20351174.757    20351171.591
 116593578.16948  90852142.94447  22187017.550    22187016.263    22187016.858
 131108570.83546 102162519.82643  24949134.790    24949134.155    24949131.331
 15 12 21  0 19  0.0000000  0 11G06G26G29G03G23G14G32G16G31G25G02
 126559826.50547  98618051.31146  24083536.782    24083536.508    24083538.611
 118196068.94447  92100840.71547  22491957.854    22491957.270    22491958.030
 120697715.43447  94050174.45146  22968004.533    22968003.841    22968000.047
 116580094.98248  90841622.08647  22184444.228    22184443.853    22184443.499
 124431031.50748  96959247.46845  23678434.738    23678433.690    23678429.277
 124645745.72746  97126561.64743  23719282.632    23719281.709    23719281.043
 121475526.12947  94656239.83545  23116012.090    23116010.610    23116009.222
 130207843.92646                  24777726.076
 106965854.02048  83350030.34948  20354918.598    20354918.078    20354914.963
 116672813.97147  90913885.15647  22202095.266    22202094.256    22202095.000
 131055711.17946 102121330.17443  24939076.444    24939075.410    24939072.702
 15 12 21  0 19 30.0000000  0 11G06G26G29G03G23G14G32G16G31G25G02
 126566271.59746  98623073.13946  24084762.405    24084761.175    24084763.955
 118099326.07548  92025456.67747  22473548.391    22473547.527    22473547.842
 120624377.57647  93993027.85346  22954048.401    22954048.226    22954045.670
 116616322.33848  90869851.17147  22191338.064    22191337.766    22191337.348
 124331940.88247  96882034.00445  23659578.001    23659577.167    23659573.368
 124752389.87546  97209660.92443  23739576.270    23739575.143    23739574.011
 121566355.87047  94727016.33045  23133295.801    23133294.591    23133293.314
 130083369.87746                  24754038.865
 106986008.12249  83365735.21348  20358753.348    20358752.977    20358749.729
 116752480.85847  90975963.14047  22217254.969    22217254.613    22217254.910
 131003278.03746 102080472.70043  24929099.538    24929098.465    24929094.281
 15 12 21  0 20  0.0000000  0 11G06G26G29G03G23G14G32G16G31G25G02
 126573322.05846  98628566.76846  24086104.483    24086104.187    24086107.185
 118002910.41048  91950327.62047  22455200.725    22455200.249    22455201.081
 120551494.97047  93936236.06246  22940181.035    22940179.772    22940176.354
 116653142.27548  90898542.02147  22198344.443    22198344.132    22198344.182
 124233060.82748  96804984.66445  23640761.719    23640760.612    23640756.192
 124859214.38746  97292900.72943  23759904.996    23759904.270    23759901.952
 121657507.80147  94798043.83845  23150641.361    23150639.440    23150639.220
 129958971.79846                  24730366.704
 107006641.80948  83381813.39648  20362680.022    20362679.499    20362676.365
 116832576.61948  91038376.02947  22232496.510    22232495.673    22232496.347
 130951273.47446 102039950.07043  24919203.107    24919202.075    24919198.988
 15 12 21  0 20 30.0000000  0 11G06G26G29G03G23G14G32G16G31G25G02
 126580978.60146  98634532.68846  24087561.642    24087561.441    24087563.439
 117906825.42748  91875456.24247  22436916.432    22436915.870    22436916.737
 120479071.30547  93879801.93246  22926398.427    22926397.948    22926395.231
 116690554.66648  90927694.49047  22205463.977    22205463.718    22205463.342
 124134395.04947  96728102.26045  23621985.708    23621985.156    23621981.421
 124966218.83447  97376280.70743  23780267.390    23780266.544    23780264.126
 121748980.54747  94869321.27345  23168048.620    23168047.361    23168045.457
 129834653.70446                  24706709.652
 107027756.95349  83398266.92948  20366697.958    20366697.433    20366694.189
 116913097.32047  91101119.44747  22247819.330    22247818.170    22247818.678
 130899699.31846 101999763.34642  24909387.821    24909385.710    24909383.271
 15 12 21  0 21  0.0000000  0 11G06G26G29G03G23G14G32G16G31G25G02
 126589240.76346  98640970.41146  24089134.496    24089134.529    24089135.808
 117811073.43347  91800844.32147  22418695.651    22418694.861    22418695.518
 120407108.92747  93823727.04446  22912704.498    22912703.718    22912701.301
 116728558.24348  90957307.63047  22212695.883    22212695.688    22212695.164
 124035945.86448  96651388.62745  23603252.002    23603251.811    23603246.309
 125073401.58047  97459799.63643  23800664.186    23800664.157    23800660.755
 121840771.50547  94940846.63445  23185515.535    23185513.661    23185512.990
 129710416.99346                  24683068.666
 107049352.13449  83415094.39348  20370807.156    20370806.718    20370803.468
 116994041.89147  91164193.21147  22263222.253    22263221.489    22263221.414
 130848556.05646 101959911.61142  24899654.670    24899654.050    24899651.479
 15 12 21  0 21 30.0000000  0 11G06G26G29G03G23G14G32G16G31G25G02
 126598106.90347  98647878.75446  24090823.306    24090822.997    24090823.761
 117715655.11447  91726492.39147  22400537.977    22400537.341    22400538.225
 120335609.92347  93768013.29046  22899099.119    22899099.418    22899095.869
 116767150.09548  90987379.18347  22220039.294    22220039.383    22220039.006
 123937713.95048  96574844.29645  23584559.322    23584558.316    23584554.247
 125180758.83147  97543454.31743  23821093.733    23821092.154    23821090.258
 121932876.67547  95012616.87445  23203042.577    23203041.336    23203040.381
 129586263.45946                  24659443.688
 107071425.59748  83432294.52848  20375007.761    20375007.189    20375004.080
 117075406.24147  91227594.11147  22278705.599    22278704.386    22278704.778
 130797845.43546                  24890004.827
 15 12 21  0 22  0.0000000  0 11G06G26G29G03G23G14G32G16G31G25G02
 126607576.74947  98655257.47346  24092624.920    24092625.100    24092626.039
 117620572.94447  91652402.40547  22382444.169    22382443.864    22382444.383
 120264576.66147  93712662.39446  22885581.820    22885581.532    22885579.365
 116806328.93548  91017908.13147  22227494.679    22227494.754    22227494.504
 123839701.84447  96498471.29945  23565907.529    23565906.758    23565903.310
 125288289.82047  97627244.77443  23841555.755    23841555.178    23841553.551
 122025293.58747  95084630.07145  23220629.146    23220627.739    23220625.793
 129462197.89046 100879625.25943  24635832.534    24635832.095    24635832.508
 107093976.81349  83449866.94548  20379298.890    20379298.392    20379295.230
 117157187.99747  91291320.29047  22294267.805    22294266.887    22294267.280
 130747568.51946 101881220.67442  24880436.716    24880435.443    24880433.408
 15 12 21  0 22 30.0000000  0 11G06G26G29G03G23G14G32G16G31G25G02
 126617652.92847  98663108.76046  24094541.843    24094541.040    24094543.968
 117525831.78948  91578578.12747  22364415.952    22364414.978    22364415.735
 120194014.80747  93657678.95046  22872155.861    22872155.201    22872152.731
 116846095.87648  91048895.31447  22235062.107    22235062.134    22235062.114
 123741914.49847  96422273.31445  23547299.006    23547297.333    23547294.755
 125395993.62246  97711169.27743  23862051.776    23862050.350    23862048.965
 122118022.05047  95156886.03545  23238274.266    23238272.636    23238271.533
 129338220.79146 100783019.60343  24612240.374    24612238.627    24612237.289
 107117007.57448  83467813.04248  20383681.730    20383681.161    20383677.823
 117239387.11848  91355371.63447  22309910.107    22309908.648    22309909.326
 130697730.14546 101842385.75342  24870954.167    24870952.445    24870949.131
 15 12 21  0 23  0.0000000  0 11G06G26G29G03G23G14G32G16G31G25G02
 126628332.66447  98671430.41846  24096574.269    24096574.179    24096576.690
 117431431.77148  91505019.69547  22346452.205    22346451.569    22346451.949
 120123924.41347  93603062.92746  22858817.018    22858816.642    22858814.247
 116886447.38648  91080337.99347  22242741.175    22242740.922    22242740.848
 123644351.58647  96346250.28745  23528733.479    23528732.461    23528729.521
 125503867.92547  97795226.80443  23882579.863    23882578.527    23882576.529
 122211057.45847  95229381.20845  23255978.128    23255976.597    23255975.935
 129214335.24646 100686485.25743  24588666.486    24588664.814    24588662.208
 107140515.36949  83486130.87148  20388154.768    20388154.314    20388151.269
 117321999.07147  91419744.63747  22325630.336    22325629.259    22325629.545
 130648329.85946 101803892.02243  24861553.448    24861551.458    24861548.440
 15 12 21  0 23 30.0000000  0 11G06G26G29G03G23G14G32G16G31G25G02
 126639614.57547  98680221.15346  24098721.808    24098721.890    24098724.195
 117337374.36647  91431728.21247  22328553.537    22328552.731    22328553.656
 120054307.74647  93548816.13246  22845569.567    22845568.853    22845566.867
 116927381.31748  91112234.53847  22250530.546    22250530.266    22250530.435
 123547014.80048  96270403.37945  23510211.267    23510210.151    23510206.624
 125611910.37846  97879415.65143  23903139.876    23903138.654    23903136.063
 122304396.08447  95302112.53445  23273740.605    23273739.125    23273738.905
 129090543.11546 100590024.14642  24565109.444    24565109.603    24565107.439
 107164498.10749  83504818.71548  20392718.627    20392718.225    20392714.932
 117405020.60548  91484436.76847  22341428.631    22341427.787    22341428.152
 130599368.27546 101765739.79643  24852236.767    24852234.269    24852230.642
 15 12 21  0 24  0.0000000  0 11G06G26G29G03G23G14G32G16G31G25G02
 126651499.62746  98689481.93246  24100983.569    24100982.923    24100985.947
 117243662.91448  91358706.31647  22310720.802    22310720.090    22310720.915
 119985168.41447  93494941.44946  22832412.151    22832411.771    22832410.469
 116968897.22148  91144584.59747  22258430.712    22258430.602    22258430.571
 123449908.07448  96194735.82545  23491732.929    23491731.726    23491727.435
 125720119.48947  97963734.22543  23923731.840    23923730.564    23923728.065
 122398036.62447  95375079.17945  23291559.569    23291558.275    23291557.387
 128966847.17246 100493637.79942  24541571.116    24541569.397    24541569.814
 107188956.75948  83523877.43548  20397373.124    20397372.619    20397369.194
 117488450.46547  91549447.13147  22357305.091    22357303.651    22357304.159
 130550850.20746 101727933.57143  24843004.076    24843003.109    24842999.505
 15 12 21  0 24 30.0000000  0 11G06G26G29G03G23G14G32G16G31G25G02
 126663986.86447  98699211.91146  24103360.316    24103360.172    24103362.081
 117150299.39047  91285955.50647  22292953.985    22292953.658    22292954.234
 119916508.65347  93441440.39646  22819346.992    22819346.263    22819344.745
 117010993.23948  91177386.65347  22266441.231    22266441.167    22266441.036
 123353032.94547  96119248.69745  23473297.670    23473296.716    23473293.790
 125828493.32446  98048181.08143  23944354.216    23944353.922    23944351.819
 122491976.13947  95448278.77645  23309435.485    23309434.129    23309433.197
 128843249.67146 100397328.25243  24518051.397    24518049.826    24518048.127
 107213889.90749  83543305.91648  20402117.446    20402116.971    20402113.853
 117572285.62247  91614773.22247  22373257.899    22373257.116    22373257.620
 130502774.92846 101690471.75543  24833854.732    24833853.917    24833850.722
 15 12 21  0 25  0.0000000  0 11G06G26G29G03G23G14G32G16G31G25G02
 126677076.43446  98709411.46646  24105850.488    24105849.783    24105852.035
 117057286.16948  91213477.65547  22275254.238    22275253.799    22275254.480
 119848330.65747  93388314.45146  22806373.736    22806373.172    22806371.222
 117053668.05748  91210639.74847  22274562.320    22274562.117    22274561.974
 123256391.80647  96043943.85245  23454907.500    23454906.537    23454902.860
 125937030.17846  98132754.93443  23965007.871    23965007.449    23965004.244
 122586212.01847  95521709.26845  23327368.241    23327366.720    23327365.589
 128719752.82146 100301096.88743  24494550.351    24494549.597    24494547.440
 107239297.20849  83563103.89948  20406952.444    20406951.999    20406948.642
 117656523.80947  91680413.33547  22389287.898    22389287.025    22389287.411
 130455146.70646                  24824793.163
 15 12 21  0 25 30.0000000  0 11G06G26G29G03G23G14G32G16G31G25G02
 126690766.87147  98720079.14546  24108456.429    24108456.194    24108457.802
 116964624.99048  91141274.12347  22257621.837    22257620.928    22257621.704
 119780637.17747  93335566.14646  22793491.522    22793490.942    22793490.271
 117096919.58248  91244342.21547  22282792.570    22282792.615    22282791.993
 123159986.41047  95968822.65845  23436562.115    23436561.206    23436557.438
 126045726.55346                  23985693.468
 122680741.05847  95595368.13945  23345356.574    23345354.895    23345354.299
 128596358.16846 100204944.76343  24471068.716    24471067.949    24471067.248
 107265177.29449  83583270.20348  20411877.080    20411876.609    20411873.348
 117741162.26048  91746365.46147  22405394.431    22405393.551    22405393.568
 130407968.97046                  24815814.068
 15 12 21  0 26  0.0000000  0 11G06G26G29G03G23G14G32G16G31G25G02
 126705057.56047  98731214.45946  24111176.225    24111175.789    24111177.477
 116872318.12848  91069346.69447  22240056.295    22240055.347    22240056.230
 119713430.60647  93283197.31246  22780703.247    22780702.766    22780700.376
 117140746.22648  91278492.82547  22291132.082    22291132.293    22291132.252
 123063819.51048  95893887.40145  23418262.486    23418261.760    23418257.682
 126154582.93046                  24006408.637
 122775561.02547  95669253.85545  23363399.441    23363398.508    23363397.360
 128473070.51646 100108876.55342  24447608.082    24447606.303    24447607.012
 107291529.72049  83603804.56448  20416891.820    20416891.414    20416888.055
 117826198.20947  91812627.22047  22421576.300    22421575.450    22421575.699
 130361237.19746                  24806920.276
 15 12 21  0 26 30.0000000  0 11G06G26G29G03G23G14G32G16G31G25G02
 126719948.66246  98742817.86146  24114008.315    24114008.193    24114012.380
 116780367.81748  90997697.08547  22222559.016    22222557.983    22222558.781
 119646713.87747  93231210.20846  22768006.686    22768006.093    22768004.696
 117185146.48848  91313090.40147  22299581.748    22299581.685    22299581.323
 122967893.65647  95819140.06845  23400008.433    23400008.139    23400003.238
 126263598.31446                  24027153.276
 122870669.02947  95743364.00945  23381498.820    23381497.055    23381496.214
 128349888.17446 100012889.88642  24424167.750    24424168.819    24424132.689
 107318353.55048  83624706.22948  20421996.376    20421995.829    20421992.563
 117911629.16747  91879196.76747  22437832.688    22437831.598    22437832.256
 130314956.93946                  24798114.304
 15 12 21  0 27  0.0000000  0 11G06G26G29G03G23G14G32G16G31G25G02
 126735438.94347  98754888.10746  24116958.377    24116957.983    24116960.304
 116688776.12848  90926326.92247  22205129.046    22205128.574    22205129.739
 119580489.56248  93179607.02446  22755404.819    22755404.522    22755402.288
 117230118.60448  91348133.58247  22308139.822    22308139.422    22308139.127
 122872210.26547  95744581.59845  23381800.507    23381799.833    23381795.352
 126372770.11046                  24047928.594
 122966062.23947  95817696.37045  23399651.785    23399649.685    23399648.776
 128226815.45646                  24400748.101
 107345648.16649  83645974.78048  20427190.217    20427189.809    20427186.423
 117997452.53147  91946071.99347  22454164.962    22454163.797    22454164.119
 130269130.23746                  24789393.003
 15 12 21  0 27 30.0000000  0 11G06G26G29G03G23G14G32G16G31G25G02
 126751529.25447  98767425.88246  24120020.778    24120020.511    24120021.593
 116597546.93247  90855239.23247  22187768.996    22187768.501    22187769.045
 119514761.32647  93128390.30746  22742897.446    22742896.797    22742894.654
 117275662.62648  91383622.42347  22316806.343    22316806.085    22316805.947
 122776773.39547  95670215.09845  23363638.999    23363638.328    23363634.575
 126482096.35746  98557431.50443  24068732.327    24068730.068    24068730.465
 123061739.73947  95892250.28945  23417858.253    23417856.879    23417855.398
 128103851.27346                  24377353.174
 107373413.80948  83667610.33348  20432473.873    20432473.400    20432470.011
 118083667.70147  92013252.62647  22470570.350    22470569.979    22470570.474
 130223758.36446                  24780758.580
 15 12 21  0 28  0.0000000  0 11G06G26G29G03G23G14G32G16G31G25G02
 126768214.25646  98780426.86246  24123194.484    24123194.299    24123195.927
 116506677.82448  90784432.18347  22170477.227    22170476.476    22170477.215
 119449526.82147  93077558.25046  22730483.889    22730482.921    22730481.529
 117321772.06747  91419551.83247  22325580.263    22325580.623    22325580.424
 122681581.04148  95596039.21045  23345524.953    23345523.773    23345520.167
 126591571.37846  98642736.69843  24089564.944    24089563.905    24089562.549
 123157693.92347  95967019.79945  23436118.173    23436117.080    23436115.123
 127981006.40946                  24353977.795
 107401645.40548  83689608.97748  20437846.164    20437845.767    20437842.460
 118170267.03847  92080732.52847  22487050.750    22487049.407    22487049.844
 130178839.61946                  24772210.241
 15 12 21  0 28 30.0000000  0 11G06G26G29G03G23G14G32G16G31G25G02
 126785495.59447  98793892.60146  24126484.374    24126483.981    24126485.895
 116416172.84648  90713908.84247  22153254.828    22153253.958    22153254.627
 119384791.30447  93027115.28246  22718163.925    22718163.957    22718161.793
 117368447.44248  91455922.25947  22334462.866    22334462.376    22334462.678
 122586637.35148  95522057.11645  23327457.463    23327456.767    23327453.177
 126701195.04546  98728157.75043  24110425.111    24110425.008    24110423.075
 123253924.24847  96042004.43345  23454429.681    23454427.619    23454426.928
 127858283.07046                  24330621.659
 107430344.32149  83711971.78148  20443307.490    20443306.906    20443303.573
 118257250.24047  92148511.53147  22503602.570    22503601.733    22503602.045
 130134377.46146                  24763749.993
 15 12 21  0 29  0.0000000  0 11G06G26G29G03G23G14G32G16G31G25G02
 126803376.90747  98807826.06446  24129886.745    24129887.004    24129889.562
 116326038.15248  90643674.02447  22136102.812    22136102.143    22136102.633
 119320560.21647  92977065.13646  22705941.898    22705940.982    22705938.939
 117415690.81047  91492735.24947  22343453.339    22343452.666    22343452.827
 122491948.82248  95448273.88845  23309438.837    23309438.295    23309434.836
 126810968.59746  98813694.68243  24131314.947    24131313.476    24131312.133
 123350431.96247  96117205.22644  23472794.486    23472793.291    23472792.037
 127735678.42446  99534297.59042  24307292.501    24307291.731    24307291.366
 107459513.56848  83734701.09148  20448857.967    20448857.630    20448854.371
 118344618.59847  92216590.56147  22520228.296    22520227.795    22520228.178
 130090376.92946 101369129.29143  24755376.975    24755375.961    24755372.183
 15 12 21  0 29 30.0000000  0 11G06G26G29G03G23G14G32G16G31G25G02
 126821851.91446  98822222.03146  24133402.415    24133402.182    24133404.634
 116236270.90448  90573725.51647  22119020.451    22119019.845    22119020.444
 119256831.79147  92927406.84646  22693813.749    22693813.678    22693811.908
 117463495.50548  91529985.62847  22352549.873    22352549.740    22352549.631
 122397512.52448  95374687.17245  23291468.751    23291467.340    23291463.893
 126920888.77546  98899347.05143  24152232.572    24152230.891    24152230.242
 123447209.29547  96192616.05744  23491210.919    23491209.193    23491207.724
 127613199.22246                  24283983.382
 107489147.28248  83757792.31148  20454497.225    20454496.936    20454493.463
 118432364.94047  92284964.21847  22536925.901    22536925.580    22536925.424
 130046834.85746 101335199.97543  24747091.403    24747089.864    24747086.011
 15 12 21  0 30  0.0000000  0 11G06G26G29G03G23G14G32G16G31G25G02
 126840923.03746  98837082.34446  24137031.357    24137031.061    24137033.068
 116146876.79248  90504067.79547  22102009.401    22102008.741    22102009.399
 119193611.87947  92878144.79346  22681783.609    22681783.471    22681781.254
 117511863.12948  91567674.61547  22361754.092    22361753.742    22361753.912
 122303334.28248  95301301.63045  23273547.150    23273546.470    23273541.925
 127030953.07146  98985111.91543  24173177.209    24173172.418    24173146.805
 123544257.15847  96268237.68344  23509678.199    23509677.237    23509676.182
 127490843.78346                  24260698.664
 107519247.96849  83781247.38848  20460225.163    20460224.663    20460221.341
 118520490.05947  92353633.11147  22553696.408    22553695.255    22553695.366
 130003757.53246 101301633.09943  24738894.408    24738893.418    24738889.056
 15 12 21  0 30 30.0000000  0 11G06G26G29G03G23G14G32G16G31G25G02
 126860588.68446  98852406.03046  24140772.790    24140773.137    24140777.387
 116057856.38248  90434701.24447  22085069.074    22085068.500    22085069.434
 119130900.54247  92829278.84146  22669850.058    22669849.553    22669847.326
 117560790.59248  91605799.85547  22371064.662    22371064.299    22371064.455
